#BESTVELA,USB1,0,53.0,FINESTEERING,1885,345109.000,00000000,10a2,13386;SOL_COMPUTED,DOPPLER_VELOCITY,0.150,0.000,0.0477,133.832295,0.0762,0*e8e816e0
#BESTPOSA,USB1,0,53.0,FINESTEERING,1885,345109.250,00000000,b1f6,13386;SOL_COMPUTED,SINGLE,51.08060921315,-114.13097164869,1146.3891,-16.6000,WGS84,2.4526,5.0275,7.5335,"",0.000,0.000,7,7,7,0,00,02,00,11*c8d98c91
#BESTVELA,USB1,0,53.0,FINESTEERING,1885,345109.250,00000000,10a2,13386;SOL_COMPUTED,DOPPLER_VELOCITY,0.150,0.000,0.2728,102.407027,0.4206,0*e427cea3
#BESTXYZA,USB1,0,53.0,FINESTEERING,1885,345109.250,00000000,fac1,13386;SOL_COMPUTED,SINGLE,-1641741.3859,-3664842.6714,4940062.2817,3.0995,6.7487,5.7353,SOL_COMPUTED,DOPPLER_VELOCITY,0.1165,-0.3917,0.2905,0.3705,0.8066,0.6855,"",0.150,0.000,0.000,7,7,7,0,0,02,00,11*62628eb4
#BESTPOSA,USB1,0,53.0,FINESTEERING,1885,345109.500,00000000,b1f6,13386;SOL_COMPUTED,SINGLE,51.08061593571,-114.13098162808,1144.6801,-16.6000,WGS84,2.4799,5.0477,7.6312,"",0.000,0.000,7,7,7,0,00,02,00,11*50769a62
#BESTVELA,USB1,0,53.0,FINESTEERING,1885,345109.500,00000000,10a2,13386;SOL_COMPUTED,DOPPLER_VELOCITY,0.150,0.000,0.9905,101.292937,1.4964,0*01f59114
#BESTXYZA,USB1,0,53.0,FINESTEERING,1885,345109.500,00000000,fac1,13386;SOL_COMPUTED,SINGLE,-1641741.3474,-3664840.8746,4940061.4220,3.1014,6.8127,5.8166,SOL_COMPUTED,DOPPLER_VELOCITY,0.4404,-1.3928,1.0424,0.3707,0.8143,0.6952,"",0.150,0.000,0.000,7,7,7,0,0,02,00,11*1e4a0c47
#BESTPOSA,USB1,0,54.5,FINESTEERING,1885,345109.750,00000000,b1f6,13386;SOL_COMPUTED,SINGLE,51.08061442596,-114.13096725802,1147.1863,-16.6000,WGS84,2.5085,5.0719,7.7207,"",0.000,0.000,7,7,7,0,00,02,00,11*b839c946
#BESTVELA,USB1,0,54.5,FINESTEERING,1885,345109.750,00000000,10a2,13386;SOL_COMPUTED,DOPPLER_VELOCITY,0.150,0.000,0.7034,100.216412,0.9848,0*4319c5df
#BESTXYZA,USB1,0,54.5,FINESTEERING,1885,345109.750,00000000,fac1,13386;SOL_COMPUTED,SINGLE,-1641741.1253,-3664842.8424,4940063.2663,3.1017,6.9075,5.8560,SOL_COMPUTED,DOPPLER_VELOCITY,0.3391,-0.9362,0.6879,0.3707,0.8256,0.6999,"",0.150,0.000,0.000,7,7,7,0,0,02,00,11*7c7a8933
#BESTPOSA,USB1,0,54.5,FINESTEERING,1885,345110.000,00000000,b1f6,13386;SOL_COMPUTED,SINGLE,51.08059572579,-114.13093247909,1152.6256,-16.6000,WGS84,2.4635,5.0391,7.5523,"",0.000,0.000,7,7,7,0,00,02,00,11*c72b8ebe
#BESTVELA,USB1,0,54.5,FINESTEERING,1885,345110.000,00000000,10a2,13386;SOL_COMPUTED,DOPPLER_VELOCITY,0.150,0.000,0.6042,96.749139,0.7412,0*6a99142b
#BESTXYZA,USB1,0,54.5,FINESTEERING,1885,345110.000,00000000,fac1,13386;SOL_COMPUTED,SINGLE,-1641740.9596,-3664848.4349,4940066.1911,3.0988,6.8048,5.7088,SOL_COMPUTED,DOPPLER_VELOCITY,0.3346,-0.7207,0.5321,0.3704,0.8133,0.6823,"",0.150,0.000,0.000,7,7,7,0,0,02,00,11*9177caf4
#BESTPOSA,USB1,0,54.5,FINESTEERING,1885,345110.250,00000000,b1f6,13386;SOL_COMPUTED,SINGLE,51.08058293135,-114.13091022091,1155.8788,-16.6000,WGS84,2.4367,5.0174,7.4727,"",0.000,0.000,7,7,7,0,00,02,00,11*2dc0f20d
#BESTVELA,USB1,0,54.5,FINESTEERING,1885,345110.250,00000000,10a2,13386;SOL_COMPUTED,DOPPLER_VELOCITY,0.150,0.000,0.8492,117.207622,0.9808,0*7187ea82
#BESTXYZA,USB1,0,54.5,FINESTEERING,1885,345110.250,00000000,fac1,13386;SOL_COMPUTED,SINGLE,-1641740.8242,-3664851.9487,4940067.8279,3.0987,6.7173,5.6770,SOL_COMPUTED,DOPPLER_VELOCITY,0.3138,-1.1468,0.5192,0.3704,0.8029,0.6785,"",0.150,0.000,0.000,7,7,7,0,0,02,00,11*5bac32cb
#BESTPOSA,USB1,0,49.5,FINESTEERING,1885,345110.500,00000000,b1f6,13386;SOL_COMPUTED,SINGLE,51.08058549656,-114.13090006828,1157.5941,-16.6000,WGS84,2.4322,5.0175,7.4382,"",0.000,0.000,7,7,7,0,00,02,00,11*7ddaf707
#BESTVELA,USB1,0,49.5,FINESTEERING,1885,345110.500,00000000,10a2,13386;SOL_COMPUTED,DOPPLER_VELOCITY,0.150,0.000,0.3359,25.015181,-0.9025,0*a689e275
#BESTXYZA,USB1,0,49.5,FINESTEERING,1885,345110.500,00000000,fac1,13386;SOL_COMPUTED,SINGLE,-1641740.5246,-3664853.0204,4940069.3417,3.0967,6.7373,5.6068,SOL_COMPUTED,DOPPLER_VELOCITY,0.4582,0.6755,-0.5110,0.3701,0.8053,0.6701,"",0.150,0.000,0.000,7,7,7,0,0,02,00,11*80a66da8
#BESTPOSA,USB1,0,49.5,FINESTEERING,1885,345110.750,00000000,b1f6,13386;SOL_COMPUTED,SINGLE,51.08064719372,-114.13080079656,1179.9827,-16.6000,WGS84,3.3955,5.6416,11.2499,"",0.000,0.000,6,6,6,0,00,02,00,11*f6cef6ae
#BESTVELA,USB1,0,49.5,FINESTEERING,1885,345110.750,00000000,10a2,13386;SOL_COMPUTED,DOPPLER_VELOCITY,0.150,0.000,1.2413,86.012205,0.8027,0*7a9b71cb
#BESTXYZA,USB1,0,49.5,FINESTEERING,1885,345110.750,00000000,fac1,13386;SOL_COMPUTED,SINGLE,-1641737.7413,-3664863.8264,4940091.0735,3.2384,7.9318,9.8243,SOL_COMPUTED,DOPPLER_VELOCITY,0.9514,-0.9052,0.6788,0.3871,0.9480,1.1742,"",0.150,0.000,0.000,6,6,6,0,0,02,00,11*2ffdc950
#BESTPOSA,USB1,0,49.5,FINESTEERING,1885,345111.000,00000000,b1f6,13386;SOL_COMPUTED,SINGLE,51.08064811298,-114.13080701367,1178.2921,-16.6000,WGS84,3.3949,5.6362,11.2306,"",0.000,0.000,6,6,6,0,00,02,00,11*7f6ed43c
#BESTVELA,USB1,0,49.5,FINESTEERING,1885,345111.000,00000000,10a2,13386;SOL_COMPUTED,DOPPLER_VELOCITY,0.150,0.000,0.8635,94.045047,-0.1370,0*1aeaa5a3
#BESTXYZA,USB1,0,49.5,FINESTEERING,1885,345111.000,00000000,fac1,13386;SOL_COMPUTED,SINGLE,-1641737.6722,-3664862.6064,4940089.8224,3.2380,7.9157,9.8119,SOL_COMPUTED,DOPPLER_VELOCITY,0.8019,-0.3169,-0.1449,0.3870,0.9461,1.1727,"",0.150,0.000,0.000,6,6,6,0,0,02,00,11*43d14322
#BESTPOSA,USB1,0,49.5,FINESTEERING,1885,345111.250,00000000,b1f6,13386;SOL_COMPUTED,SINGLE,51.08064887672,-114.13081048953,1177.0645,-16.6000,WGS84,3.3926,5.6071,11.1259,"",0.000,0.000,6,6,6,0,00,02,00,11*37a24ad5
#BESTVELA,USB1,0,49.5,FINESTEERING,1885,345111.250,00000000,10a2,13386;SOL_COMPUTED,DOPPLER_VELOCITY,0.150,0.000,1.1011,92.459150,0.5121,0*31d149cc
#BESTXYZA,USB1,0,49.5,FINESTEERING,1885,345111.250,00000000,fac1,13386;SOL_COMPUTED,SINGLE,-1641737.5522,-3664861.7426,4940088.9207,3.2367,7.8258,9.7477,SOL_COMPUTED,DOPPLER_VELOCITY,0.8574,-0.7769,0.3688,0.3869,0.9354,1.1651,"",0.150,0.000,0.000,6,6,6,0,0,02,00,11*0ce5e620
#BESTPOSA,USB1,0,49.5,FINESTEERING,1885,345111.500,00000000,b1f6,13386;SOL_COMPUTED,SINGLE,51.08064771647,-114.13071375297,1188.1907,-16.6000,WGS84,3.3901,4.5388,9.5993,"",0.000,0.000,7,7,7,0,00,02,00,11*6eebfd29
#BESTVELA,USB1,0,49.5,FINESTEERING,1885,345111.500,00000000,10a2,13386;SOL_COMPUTED,DOPPLER_VELOCITY,0.150,0.000,1.0379,108.191028,0.5330,0*60bce8b8
#BESTXYZA,USB1,0,49.5,FINESTEERING,1885,345111.500,00000000,fac1,13386;SOL_COMPUTED,SINGLE,-1641734.2632,-3664870.9851,4940097.4962,2.8301,6.3322,8.7254,SOL_COMPUTED,DOPPLER_VELOCITY,0.6599,-0.9388,0.2112,0.3383,0.7568,1.0429,"",0.150,0.000,0.000,7,7,7,0,0,02,00,11*fa1c556e
#BESTPOSA,USB1,0,52.0,FINESTEERING,1885,345111.750,00000000,b1f6,13386;SOL_COMPUTED,SINGLE,51.08067710144,-114.13102739462,1134.9844,-16.6000,WGS84,6.2124,26.1610,69.0975,"",0.000,0.000,5,5,5,0,00,02,00,11*474955e4
#BESTVELA,USB1,0,52.0,FINESTEERING,1885,345111.750,00000000,10a2,13386;SOL_COMPUTED,DOPPLER_VELOCITY,0.150,0.000,2.9864,96.450577,3.7901,0*b00d72dd
#BESTXYZA,USB1,0,52.0,FINESTEERING,1885,345111.750,00000000,fac1,13386;SOL_COMPUTED,SINGLE,-1641739.6197,-3664829.1719,4940058.1541,5.2627,53.8128,50.7341,SOL_COMPUTED,DOPPLER_VELOCITY,1.6281,-3.6244,2.7380,0.6290,6.4319,6.0639,"",0.150,0.000,0.000,5,5,5,0,0,02,00,11*4709b8f4
#BESTPOSA,USB1,0,52.0,FINESTEERING,1885,345112.000,00000000,b1f6,13386;SOL_COMPUTED,SINGLE,51.08064797147,-114.13080001497,1176.9006,-16.6000,WGS84,3.3957,5.6542,11.2910,"",0.000,0.000,6,6,6,0,00,02,00,11*96a4779b
#BESTVELA,USB1,0,52.0,FINESTEERING,1885,345112.000,00000000,10a2,13386;SOL_COMPUTED,DOPPLER_VELOCITY,0.150,0.000,1.3064,96.473946,1.1864,0*73081a54
#BESTXYZA,USB1,0,52.0,FINESTEERING,1885,345112.000,00000000,fac1,13386;SOL_COMPUTED,SINGLE,-1641736.8722,-3664862.0203,4940088.7299,3.2393,7.9705,9.8471,SOL_COMPUTED,DOPPLER_VELOCITY,0.8330,-1.3155,0.8305,0.3872,0.9527,1.1770,"",0.150,0.000,0.000,6,6,6,0,0,02,00,11*6acd700c
#BESTPOSA,USB1,0,52.0,FINESTEERING,1885,345112.250,00000000,b1f6,13386;SOL_COMPUTED,SINGLE,51.08067613196,-114.13101892910,1135.3239,-16.6000,WGS84,6.2091,26.1264,69.0013,"",0.000,0.000,5,5,5,0,00,02,00,11*f22390eb
#BESTVELA,USB1,0,52.0,FINESTEERING,1885,345112.250,00000000,10a2,13386;SOL_COMPUTED,DOPPLER_VELOCITY,0.150,0.000,0.4569,282.723186,-3.3649,0*0aa21267
#BESTXYZA,USB1,0,52.0,FINESTEERING,1885,345112.250,00000000,fac1,13386;SOL_COMPUTED,SINGLE,-1641739.1998,-3664829.6857,4940058.3505,5.2579,53.7406,50.6619,SOL_COMPUTED,DOPPLER_VELOCITY,0.4895,2.1828,-2.5548,0.6284,6.4232,6.0553,"",0.150,0.000,0.000,5,5,5,0,0,02,00,11*5561628f
#BESTPOSA,USB1,0,52.0,FINESTEERING,1885,345112.500,00000000,b1f6,13386;SOL_COMPUTED,SINGLE,51.08067614094,-114.13101631062,1135.3614,-16.6000,WGS84,6.2080,26.1108,68.9582,"",0.000,0.000,5,5,5,0,00,02,00,11*51c6e8db
#BESTVELA,USB1,0,52.0,FINESTEERING,1885,345112.500,00000000,10a2,13386;SOL_COMPUTED,DOPPLER_VELOCITY,0.150,0.000,1.6885,97.942514,3.4214,0*ff6a4bac
#BESTXYZA,USB1,0,52.0,FINESTEERING,1885,345112.500,00000000,fac1,13386;SOL_COMPUTED,SINGLE,-1641739.0416,-3664829.7815,4940058.3802,5.2557,53.7085,50.6293,SOL_COMPUTED,DOPPLER_VELOCITY,0.5732,-2.8109,2.5153,0.6282,6.4194,6.0514,"",0.150,0.000,0.000,5,5,5,0,0,02,00,11*b38953d7
#BESTPOSA,USB1,0,53.5,FINESTEERING,1885,345112.750,00000000,b1f6,13386;SOL_COMPUTED,SINGLE,51.08068713921,-114.13105978101,1125.6296,-16.6000,WGS84,5.8229,9.6163,25.9452,"",0.000,0.000,5,5,5,0,00,02,00,11*ec2f05c2
#BESTVELA,USB1,0,53.5,FINESTEERING,1885,345112.750,00000000,10a2,13386;SOL_COMPUTED,DOPPLER_VELOCITY,0.150,0.000,1.0513,97.252482,0.6163,0*848bddea
#BESTXYZA,USB1,0,53.5,FINESTEERING,1885,345112.750,00000000,fac1,13386;SOL_COMPUTED,SINGLE,-1641738.9334,-3664822.0875,4940051.5774,5.1850,20.2506,19.0410,SOL_COMPUTED,DOPPLER_VELOCITY,0.7513,-0.8739,0.3961,0.6197,2.4204,2.2758,"",0.150,0.000,0.000,5,5,5,0,0,02,00,11*d71f919a
#BESTPOSA,USB1,0,53.5,FINESTEERING,1885,345113.000,00000000,b1f6,13386;SOL_COMPUTED,SINGLE,51.08068041337,-114.13102922737,1131.7821,-16.6000,WGS84,5.8392,9.6791,26.1639,"",0.000,0.000,5,5,5,0,00,02,00,11*11512f27
#BESTVELA,USB1,0,53.5,FINESTEERING,1885,345113.000,00000000,10a2,13386;SOL_COMPUTED,DOPPLER_VELOCITY,0.150,0.000,0.9436,92.196554,0.6561,0*6232cb66
#BESTXYZA,USB1,0,53.5,FINESTEERING,1885,345113.000,00000000,fac1,13386;SOL_COMPUTED,SINGLE,-1641738.7973,-3664827.0217,4940055.8941,5.1852,20.4297,19.1852,SOL_COMPUTED,DOPPLER_VELOCITY,0.6805,-0.7873,0.4877,0.6198,2.4418,2.2931,"",0.150,0.000,0.000,5,5,5,0,0,02,00,11*9a266fbc
#BESTPOSA,USB1,0,53.5,FINESTEERING,1885,345113.250,00000000,b1f6,13386;SOL_COMPUTED,SINGLE,51.08068381969,-114.13104199790,1128.6550,-16.6000,WGS84,5.8381,9.6733,26.1458,"",0.000,0.000,5,5,5,0,00,02,00,11*597c6276
#BESTVELA,USB1,0,53.5,FINESTEERING,1885,345113.250,00000000,10a2,13386;SOL_COMPUTED,DOPPLER_VELOCITY,0.150,0.000,0.2063,51.250513,-0.6240,0*fae6cf22
#BESTXYZA,USB1,0,53.5,FINESTEERING,1885,345113.250,00000000,fac1,13386;SOL_COMPUTED,SINGLE,-1641738.6904,-3664824.5939,4940053.6992,5.1852,20.4157,19.1722,SOL_COMPUTED,DOPPLER_VELOCITY,0.3482,0.3837,-0.4044,0.6198,2.4401,2.2915,"",0.150,0.000,0.000,5,5,5,0,0,02,00,11*68c914fc
#BESTPOSA,USB1,0,53.5,FINESTEERING,1885,345113.500,00000000,b1f6,13386;SOL_COMPUTED,SINGLE,51.08068457717,-114.13104276649,1128.1067,-16.6000,WGS84,5.8341,9.6561,26.0892,"",0.000,0.000,5,5,5,0,00,02,00,11*2c5eb92a
#BESTVELA,USB1,0,53.5,FINESTEERING,1885,345113.500,00000000,10a2,13386;SOL_COMPUTED,DOPPLER_VELOCITY,0.150,0.000,0.9689,77.061762,0.0551,0*da7b634b
#BESTXYZA,USB1,0,53.5,FINESTEERING,1885,345113.500,00000000,fac1,13386;SOL_COMPUTED,SINGLE,-1641738.5720,-3664824.1976,4940053.3255,5.1846,20.3704,19.1335,SOL_COMPUTED,DOPPLER_VELOCITY,0.9166,-0.2636,0.1791,0.6197,2.4347,2.2869,"",0.150,0.000,0.000,5,5,5,0,0,02,00,11*8ee027a9
#BESTPOSA,USB1,0,55.5,FINESTEERING,1885,345113.750,00000000,b1f6,13386;SOL_COMPUTED,SINGLE,51.08068588851,-114.13104620781,1126.9255,-16.6000,WGS84,5.8274,9.6281,25.9956,"",0.000,0.000,5,5,5,0,00,02,00,11*f315101b
#BESTVELA,USB1,0,55.5,FINESTEERING,1885,345113.750,00000000,10a2,13386;SOL_COMPUTED,DOPPLER_VELOCITY,0.150,0.000,0.7220,82.983806,-0.3432,0*643a6076
#BESTXYZA,USB1,0,55.5,FINESTEERING,1885,345113.750,00000000,fac1,13386;SOL_COMPUTED,SINGLE,-1641738.4423,-3664823.3182,4940052.4982,5.1837,20.2948,19.0703,SOL_COMPUTED,DOPPLER_VELOCITY,0.7702,-0.0336,-0.2116,0.6196,2.4257,2.2793,"",0.150,0.000,0.000,5,5,5,0,0,02,00,11*36b2bc25
#BESTPOSA,USB1,0,55.5,FINESTEERING,1885,345114.000,00000000,b1f6,13386;SOL_COMPUTED,SINGLE,51.08065022441,-114.13098801908,1144.6402,-16.6000,WGS84,4.8812,8.8096,20.6244,"",0.000,0.000,6,6,6,0,00,02,00,11*389ed2b6
#BESTVELA,USB1,0,55.5,FINESTEERING,1885,345114.000,00000000,10a2,13386;SOL_COMPUTED,DOPPLER_VELOCITY,0.150,0.000,0.6778,109.607041,0.8271,0*440910af
#BESTXYZA,USB1,0,55.5,FINESTEERING,1885,345114.000,00000000,fac1,13386;SOL_COMPUTED,SINGLE,-1641740.5323,-3664837.9595,4940063.7878,4.9627,15.6436,16.0452,SOL_COMPUTED,DOPPLER_VELOCITY,0.2979,-0.8967,0.5006,0.5932,1.8698,1.9178,"",0.150,0.000,0.000,6,6,6,0,0,02,00,11*ac3afbb7
#BESTPOSA,USB1,0,55.5,FINESTEERING,1885,345114.250,00000000,b1f6,13386;SOL_COMPUTED,SINGLE,51.08065206697,-114.13099584261,1142.6029,-16.6000,WGS84,4.8901,8.9313,20.9555,"",0.000,0.000,6,6,6,0,00,02,00,11*c16a91e9
#BESTVELA,USB1,0,55.5,FINESTEERING,1885,345114.250,00000000,10a2,13386;SOL_COMPUTED,DOPPLER_VELOCITY,0.150,0.000,0.4078,221.343317,-0.9892,0*3721bdfd
#BESTXYZA,USB1,0,55.5,FINESTEERING,1885,345114.250,00000000,fac1,13386;SOL_COMPUTED,SINGLE,-1641740.4443,-3664836.4217,4940062.3315,4.9789,15.9143,16.2714,SOL_COMPUTED,DOPPLER_VELOCITY,-0.0892,0.4599,-0.9620,0.5951,1.9021,1.9448,"",0.150,0.000,0.000,6,6,6,0,0,02,00,11*20ac470b
#BESTPOSA,USB1,0,54.5,FINESTEERING,1885,345114.500,00000000,b1f6,13386;SOL_COMPUTED,SINGLE,51.08061561452,-114.13094070922,1160.2712,-16.6000,WGS84,3.8806,8.1127,14.3616,"",0.000,0.000,6,6,6,0,00,02,00,11*14e53cad
#BESTVELA,USB1,0,54.5,FINESTEERING,1885,345114.500,00000000,10a2,13386;SOL_COMPUTED,DOPPLER_VELOCITY,0.150,0.000,0.9320,107.916559,-0.3931,0*0237616e
#BESTXYZA,USB1,0,54.5,FINESTEERING,1885,345114.500,00000000,fac1,13386;SOL_COMPUTED,SINGLE,-1641742.7457,-3664851.0112,4940073.5299,4.8420,9.9621,12.8235,SOL_COMPUTED,DOPPLER_VELOCITY,0.8190,-0.3407,-0.4860,0.5787,1.1907,1.5327,"",0.150,0.000,0.000,6,6,6,0,0,02,00,11*a120c204
#BESTPOSA,USB1,0,54.5,FINESTEERING,1885,345114.750,00000000,b1f6,13386;SOL_COMPUTED,SINGLE,51.08064210173,-114.13083525434,1167.2060,-16.6000,WGS84,4.9946,5.8468,14.1832,"",0.000,0.000,7,7,7,0,00,02,00,11*1a1c42e9
#BESTVELA,USB1,0,54.5,FINESTEERING,1885,345114.750,00000000,10a2,13386;SOL_COMPUTED,DOPPLER_VELOCITY,0.150,0.000,0.0674,245.712443,-1.2884,0*620ffa3b
#BESTXYZA,USB1,0,54.5,FINESTEERING,1885,345114.750,00000000,fac1,13386;SOL_COMPUTED,SINGLE,-1641736.8441,-3664855.9161,4940080.7769,4.9172,10.3646,11.3443,SOL_COMPUTED,DOPPLER_VELOCITY,0.2660,0.7441,-1.0198,0.5877,1.2388,1.3559,"",0.150,0.000,0.000,7,7,7,0,0,02,00,11*da63554b
#BESTPOSA,USB1,0,54.5,FINESTEERING,1885,345115.000,00000000,b1f6,13386;SOL_COMPUTED,SINGLE,51.08064954218,-114.13079365064,1166.3219,-16.6000,WGS84,5.5432,9.6768,14.7196,"",0.000,0.000,6,6,6,0,00,02,00,11*a0dee591
#BESTVELA,USB1,0,54.5,FINESTEERING,1885,345115.000,00000000,10a2,13386;SOL_COMPUTED,DOPPLER_VELOCITY,0.150,0.000,0.4067,72.692637,-1.0990,0*f792cb3c
#BESTXYZA,USB1,0,54.5,FINESTEERING,1885,345115.000,00000000,fac1,13386;SOL_COMPUTED,SINGLE,-1641733.6925,-3664856.0135,4940080.6092,10.1088,10.3951,11.4363,SOL_COMPUTED,DOPPLER_VELOCITY,0.6751,0.5572,-0.7790,1.2082,1.2424,1.3669,"",0.150,0.000,0.000,6,6,6,0,0,02,00,11*35d7a5af
#BESTPOSA,USB1,0,54.5,FINESTEERING,1885,345115.250,00000000,b1f6,13386;SOL_COMPUTED,SINGLE,51.08064029252,-114.13086870192,1165.5112,-16.6000,WGS84,3.7768,6.2901,10.8410,"",0.000,0.000,6,6,6,0,00,02,00,11*f990e898
#BESTVELA,USB1,0,54.5,FINESTEERING,1885,345115.250,00000000,10a2,13386;SOL_COMPUTED,DOPPLER_VELOCITY,0.150,0.000,1.0133,75.164507,-0.3784,0*dc12a2a5
#BESTXYZA,USB1,0,54.5,FINESTEERING,1885,345115.250,00000000,fac1,13386;SOL_COMPUTED,SINGLE,-1641738.6123,-3664854.1290,4940079.3318,3.7337,8.2065,9.4905,SOL_COMPUTED,DOPPLER_VELOCITY,1.0736,0.0007,-0.1314,0.4463,0.9809,1.1343,"",0.150,0.000,0.000,6,6,6,0,0,02,00,11*e3467e23
#BESTPOSA,USB1,0,54.5,FINESTEERING,1885,345115.500,00000000,b1f6,13386;SOL_COMPUTED,SINGLE,51.08063537418,-114.13077766466,1175.0388,-16.6000,WGS84,3.7900,6.7966,11.5908,"",0.000,0.000,5,5,5,0,00,02,00,11*1970d2d2
#BESTVELA,USB1,0,54.5,FINESTEERING,1885,345115.500,00000000,10a2,13386;SOL_COMPUTED,DOPPLER_VELOCITY,0.150,0.000,0.6913,54.092987,-0.9055,0*4722d710
#BESTXYZA,USB1,0,54.5,FINESTEERING,1885,345115.500,00000000,fac1,13386;SOL_COMPUTED,SINGLE,-1641735.4102,-3664862.5886,4940086.4008,3.9209,8.9744,9.9494,SOL_COMPUTED,DOPPLER_VELOCITY,0.8725,0.5781,-0.4498,0.4686,1.0726,1.1892,"",0.150,0.000,0.000,5,5,5,0,0,02,00,11*8e58e4be
#BESTPOSA,USB1,0,54.5,FINESTEERING,1885,345115.750,00000000,b1f6,13386;SOL_COMPUTED,SINGLE,51.08064218517,-114.13086251350,1164.8830,-16.6000,WGS84,3.7791,6.2862,10.9080,"",0.000,0.000,6,6,6,0,00,02,00,11*fd2944d6
#BESTVELA,USB1,0,54.5,FINESTEERING,1885,345115.750,00000000,10a2,13386;SOL_COMPUTED,DOPPLER_VELOCITY,0.150,0.000,1.5662,94.264876,0.9435,0*1f6f4ba2
#BESTXYZA,USB1,0,54.5,FINESTEERING,1885,345115.750,00000000,fac1,13386;SOL_COMPUTED,SINGLE,-1641737.9881,-3664853.7966,4940078.9754,3.7196,8.2598,9.5249,SOL_COMPUTED,DOPPLER_VELOCITY,1.1460,-1.2622,0.6609,0.4446,0.9872,1.1384,"",0.150,0.000,0.000,6,6,6,0,0,02,00,11*a085ed26
#BESTPOSA,USB1,0,54.5,FINESTEERING,1885,345116.000,00000000,b1f6,13386;SOL_COMPUTED,SINGLE,51.08068416984,-114.13109950984,1119.1487,-16.6000,WGS84,4.4591,10.6051,25.5677,"",0.000,0.000,5,5,5,0,00,02,00,11*f14e21a6
#BESTVELA,USB1,0,54.5,FINESTEERING,1885,345116.000,00000000,10a2,13386;SOL_COMPUTED,DOPPLER_VELOCITY,0.150,0.000,0.9628,96.027463,-0.0299,0*f61212fe
#BESTXYZA,USB1,0,54.5,FINESTEERING,1885,345116.000,00000000,fac1,13386;SOL_COMPUTED,SINGLE,-1641739.9151,-3664817.4680,4940046.3275,3.8735,20.1988,19.0542,SOL_COMPUTED,DOPPLER_VELOCITY,0.8493,-0.4461,-0.0868,0.4630,2.4142,2.2774,"",0.150,0.000,0.000,5,5,5,0,0,02,00,11*37cf401f
#BESTPOSA,USB1,0,54.5,FINESTEERING,1885,345116.250,00000000,b1f6,13386;SOL_COMPUTED,SINGLE,51.08064018241,-114.13081588152,1167.7159,-16.6000,WGS84,3.7878,6.7381,11.4945,"",0.000,0.000,5,5,5,0,00,02,00,11*eb7e74c0
#BESTVELA,USB1,0,54.5,FINESTEERING,1885,345116.250,00000000,10a2,13386;SOL_COMPUTED,DOPPLER_VELOCITY,0.150,0.000,3.4942,99.889825,5.2105,0*32bc5bcf
#BESTXYZA,USB1,0,54.5,FINESTEERING,1885,345116.250,00000000,fac1,13386;SOL_COMPUTED,SINGLE,-1641735.8038,-3664856.9152,4940081.0394,3.8938,8.8898,9.8835,SOL_COMPUTED,DOPPLER_VELOCITY,1.6123,-4.8207,3.6769,0.4654,1.0625,1.1813,"",0.150,0.000,0.000,5,5,5,0,0,02,00,11*2b64ad5b
#BESTPOSA,USB1,0,50.5,FINESTEERING,1885,345116.500,00000000,b1f6,13386;SOL_COMPUTED,SINGLE,51.08064418631,-114.13082081983,1165.2006,-16.6000,WGS84,3.7941,6.7886,11.6966,"",0.000,0.000,5,5,5,0,00,02,00,11*0c1e230f
#BESTVELA,USB1,0,50.5,FINESTEERING,1885,345116.500,00000000,10a2,13386;SOL_COMPUTED,DOPPLER_VELOCITY,0.150,0.000,2.6355,95.867800,4.4318,0*85179a57
#BESTXYZA,USB1,0,50.5,FINESTEERING,1885,345116.500,00000000,fac1,13386;SOL_COMPUTED,SINGLE,-1641735.3319,-3664855.0153,4940079.3623,3.8920,9.0608,10.0022,SOL_COMPUTED,DOPPLER_VELOCITY,1.1687,-3.8040,3.2788,0.4652,1.0830,1.1955,"",0.150,0.000,0.000,5,5,5,0,0,02,00,11*bc876ef0
#BESTPOSA,USB1,0,50.5,FINESTEERING,1885,345116.750,00000000,b1f6,13386;SOL_COMPUTED,SINGLE,51.08064486532,-114.13081323241,1165.2419,-16.6000,WGS84,3.7892,6.7360,11.5311,"",0.000,0.000,5,5,5,0,00,02,00,11*476575fd
#BESTVELA,USB1,0,50.5,FINESTEERING,1885,345116.750,00000000,10a2,13386;SOL_COMPUTED,DOPPLER_VELOCITY,0.150,0.000,1.9334,97.014647,2.0881,0*f7ebd156
#BESTXYZA,USB1,0,50.5,FINESTEERING,1885,345116.750,00000000,fac1,13386;SOL_COMPUTED,SINGLE,-1641734.8332,-3664855.2028,4940079.4420,3.8842,8.9203,9.9015,SOL_COMPUTED,DOPPLER_VELOCITY,1.1398,-2.1493,1.4763,0.4643,1.0662,1.1835,"",0.150,0.000,0.000,5,5,5,0,0,02,00,11*d8962694
#BESTPOSA,USB1,0,50.5,FINESTEERING,1885,345117.000,00000000,b1f6,13386;SOL_COMPUTED,SINGLE,51.08064689645,-114.13084619960,1162.4018,-16.6000,WGS84,3.7234,5.1217,9.7725,"",0.000,0.000,7,7,7,0,00,02,00,11*1d622821
#BESTVELA,USB1,0,50.5,FINESTEERING,1885,345117.000,00000000,10a2,13386;SOL_COMPUTED,DOPPLER_VELOCITY,0.150,0.000,0.3392,16.496059,-0.8516,0*1d6d74fc
#BESTXYZA,USB1,0,50.5,FINESTEERING,1885,345117.000,00000000,fac1,13386;SOL_COMPUTED,SINGLE,-1641736.1406,-3664852.4693,4940077.3743,3.1721,6.8753,8.8468,SOL_COMPUTED,DOPPLER_VELOCITY,0.4101,0.6798,-0.4583,0.3791,0.8218,1.0574,"",0.150,0.000,0.000,7,7,7,0,0,02,00,11*b1c315b5
#BESTPOSA,USB1,0,50.5,FINESTEERING,1885,345117.250,00000000,b1f6,13386;SOL_COMPUTED,SINGLE,51.08064731471,-114.13084496536,1162.8668,-16.6000,WGS84,3.7201,5.1041,9.6683,"",0.000,0.000,7,7,7,0,00,02,00,11*5f917e75
#BESTVELA,USB1,0,50.5,FINESTEERING,1885,345117.250,00000000,10a2,13386;SOL_COMPUTED,DOPPLER_VELOCITY,0.150,0.000,0.3159,57.511933,0.5280,0*ceec7257
#BESTXYZA,USB1,0,50.5,FINESTEERING,1885,345117.250,00000000,fac1,13386;SOL_COMPUTED,SINGLE,-1641736.1663,-3664852.7383,4940077.7653,3.1691,6.7901,8.7875,SOL_COMPUTED,DOPPLER_VELOCITY,0.1616,-0.2912,0.5174,0.3788,0.8116,1.0503,"",0.150,0.000,0.000,7,7,7,0,0,02,00,11*58e9f106
#BESTPOSA,USB1,0,47.5,FINESTEERING,1885,345117.500,00000000,b1f6,13386;SOL_COMPUTED,SINGLE,51.08064729111,-114.13089415895,1158.1301,-16.6000,WGS84,3.4279,2.0445,6.8489,"",0.000,0.000,7,7,7,0,00,02,00,11*30aaa817
#BESTVELA,USB1,0,47.5,FINESTEERING,1885,345117.500,00000000,10a2,13386;SOL_COMPUTED,DOPPLER_VELOCITY,0.150,0.000,0.4576,215.790046,-0.6251,0*2db08b40
#BESTXYZA,USB1,0,47.5,FINESTEERING,1885,345117.500,00000000,fac1,13386;SOL_COMPUTED,SINGLE,-1641738.0972,-3664848.6149,4940074.0784,2.0431,3.0588,7.0219,SOL_COMPUTED,DOPPLER_VELOCITY,-0.2018,0.2042,-0.7195,0.2442,0.3656,0.8393,"",0.150,0.000,0.000,7,7,7,0,0,02,00,11*440fcab1
#BESTPOSA,USB1,0,47.5,FINESTEERING,1885,345117.750,00000000,b1f6,13386;SOL_COMPUTED,SINGLE,51.08063356720,-114.13076558488,1172.1537,-16.6000,WGS84,3.2778,5.7175,10.8010,"",0.000,0.000,7,7,7,0,00,02,00,11*0299565f
#BESTVELA,USB1,0,47.5,FINESTEERING,1885,345117.750,00000000,10a2,13386;SOL_COMPUTED,DOPPLER_VELOCITY,0.150,0.000,0.1780,7.206973,-1.5280,0*013a6811
#BESTXYZA,USB1,0,47.5,FINESTEERING,1885,345117.750,00000000,fac1,13386;SOL_COMPUTED,SINGLE,-1641733.9605,-3664861.4234,4940084.0298,3.3245,7.8898,9.3163,SOL_COMPUTED,DOPPLER_VELOCITY,0.4690,0.9923,-1.0779,0.3973,0.9430,1.1135,"",0.150,0.000,0.000,7,7,7,0,0,02,00,11*f68954ae
#BESTPOSA,USB1,0,47.5,FINESTEERING,1885,345118.000,00000000,b1f6,13386;SOL_COMPUTED,SINGLE,51.08063453966,-114.13079114638,1168.0669,-16.6000,WGS84,3.1990,5.4870,10.1949,"",0.000,0.000,8,8,8,0,00,02,00,11*57c47db2
#BESTVELA,USB1,0,47.5,FINESTEERING,1885,345118.000,00000000,10a2,13386;SOL_COMPUTED,DOPPLER_VELOCITY,0.150,0.000,0.9510,92.433193,0.4649,0*783bad0b
#BESTXYZA,USB1,0,47.5,FINESTEERING,1885,345118.000,00000000,fac1,13386;SOL_COMPUTED,SINGLE,-1641734.5115,-3664858.2710,4940080.9181,3.2580,7.4826,8.8133,SOL_COMPUTED,DOPPLER_VELOCITY,0.7348,-0.6836,0.3363,0.3894,0.8943,1.0534,"",0.150,0.000,0.000,8,8,8,0,0,02,00,11*fda9259d
#BESTPOSA,USB1,0,47.5,FINESTEERING,1885,345118.250,00000000,b1f6,13386;SOL_COMPUTED,SINGLE,51.08061608125,-114.13082025109,1162.2638,-16.6000,WGS84,2.4148,5.0492,7.3962,"",0.000,0.000,8,8,8,0,00,02,00,11*c7d60fe4
#BESTVELA,USB1,0,47.5,FINESTEERING,1885,345118.250,00000000,10a2,13386;SOL_COMPUTED,DOPPLER_VELOCITY,0.150,0.000,1.3083,103.540472,1.8974,0*28900087
#BESTXYZA,USB1,0,47.5,FINESTEERING,1885,345118.250,00000000,fac1,13386;SOL_COMPUTED,SINGLE,-1641735.5360,-3664855.5683,4940075.1128,3.1639,6.5633,5.7395,SOL_COMPUTED,DOPPLER_VELOCITY,0.5760,-1.8253,1.2838,0.3782,0.7845,0.6860,"",0.150,0.000,0.000,8,8,8,0,0,02,00,11*1dfe966f
#BESTPOSA,USB1,0,47.5,FINESTEERING,1885,345118.500,00000000,b1f6,13386;SOL_COMPUTED,SINGLE,51.08061522524,-114.13082142964,1161.7569,-16.6000,WGS84,2.4062,4.9587,7.2694,"",0.000,0.000,8,8,8,0,00,02,00,11*9fe036e2
#BESTVELA,USB1,0,47.5,FINESTEERING,1885,345118.500,00000000,10a2,13386;SOL_COMPUTED,DOPPLER_VELOCITY,0.150,0.000,1.6073,97.473024,2.0599,0*1557c492
#BESTXYZA,USB1,0,47.5,FINESTEERING,1885,345118.500,00000000,fac1,13386;SOL_COMPUTED,SINGLE,-1641735.5115,-3664855.3116,4940074.6586,3.1379,6.4020,5.6914,SOL_COMPUTED,DOPPLER_VELOCITY,0.8589,-1.9810,1.4713,0.3750,0.7652,0.6802,"",0.150,0.000,0.000,8,8,8,0,0,02,00,11*f9e23138
#BESTPOSA,USB1,0,52.5,FINESTEERING,1885,345118.750,00000000,b1f6,13386;SOL_COMPUTED,SINGLE,51.08066862986,-114.13091703804,1142.9977,-16.6000,WGS84,4.0134,6.2711,12.1447,"",0.000,0.000,7,7,7,0,00,02,00,11*e39c082f
#BESTVELA,USB1,0,52.5,FINESTEERING,1885,345118.750,00000000,10a2,13386;SOL_COMPUTED,DOPPLER_VELOCITY,0.150,0.000,1.9762,91.074275,2.7316,0*54652a22
#BESTXYZA,USB1,0,52.5,FINESTEERING,1885,345118.750,00000000,fac1,13386;SOL_COMPUTED,SINGLE,-1641734.9189,-3664837.5976,4940063.7965,3.1532,11.3648,7.9892,SOL_COMPUTED,DOPPLER_VELOCITY,1.0898,-2.4002,2.1020,0.3769,1.3584,0.9549,"",0.150,0.000,0.000,7,7,7,0,0,02,00,11*0b34d525
#BESTPOSA,USB1,0,52.5,FINESTEERING,1885,345119.000,00000000,b1f6,13386;SOL_COMPUTED,SINGLE,51.08067393580,-114.13091922164,1144.3172,-16.6000,WGS84,3.9768,6.1596,11.9403,"",0.000,0.000,7,7,7,0,00,02,00,11*772a0ba9
#BESTVELA,USB1,0,52.5,FINESTEERING,1885,345119.000,00000000,10a2,13386;SOL_COMPUTED,DOPPLER_VELOCITY,0.150,0.000,0.0818,73.948497,-0.0272,0*f13eb697
#BESTXYZA,USB1,0,52.5,FINESTEERING,1885,345119.000,00000000,fac1,13386;SOL_COMPUTED,SINGLE,-1641735.2096,-3664837.8723,4940065.1940,3.1216,11.1792,7.8491,SOL_COMPUTED,DOPPLER_VELOCITY,0.0859,-0.0005,-0.0070,0.3731,1.3362,0.9381,"",0.150,0.000,0.000,7,7,7,0,0,02,00,11*cc736da1
#BESTPOSA,USB1,0,52.5,FINESTEERING,1885,345119.250,00000000,b1f6,13386;SOL_COMPUTED,SINGLE,51.08061392223,-114.13080952962,1163.8037,-16.6000,WGS84,2.4446,4.9471,7.3628,"",0.000,0.000,8,8,8,0,00,02,00,11*fe7a8957
#BESTVELA,USB1,0,52.5,FINESTEERING,1885,345119.250,00000000,10a2,13386;SOL_COMPUTED,DOPPLER_VELOCITY,0.150,0.000,1.7313,93.522269,1.9705,0*2c975fd4
#BESTXYZA,USB1,0,52.5,FINESTEERING,1885,345119.250,00000000,fac1,13386;SOL_COMPUTED,SINGLE,-1641735.3221,-3664856.9290,4940076.1600,3.1183,6.4841,5.7352,SOL_COMPUTED,DOPPLER_VELOCITY,1.0371,-1.9117,1.4663,0.3727,0.7750,0.6855,"",0.150,0.000,0.000,8,8,8,0,0,02,00,11*b52abf4a
#BESTPOSA,USB1,0,52.5,FINESTEERING,1885,345119.500,00000000,b1f6,13386;SOL_COMPUTED,SINGLE,51.08061565193,-114.13082080157,1162.5613,-16.6000,WGS84,2.4785,4.9499,7.4738,"",0.000,0.000,8,8,8,0,00,02,00,11*d084dcd5
#BESTVELA,USB1,0,52.5,FINESTEERING,1885,345119.500,00000000,10a2,13386;SOL_COMPUTED,DOPPLER_VELOCITY,0.150,0.000,1.5303,71.392578,1.4422,0*05407687
#BESTXYZA,USB1,0,52.5,FINESTEERING,1885,345119.500,00000000,fac1,13386;SOL_COMPUTED,SINGLE,-1641735.6628,-3664855.7570,4940075.3143,3.1154,6.5062,5.8707,SOL_COMPUTED,DOPPLER_VELOCITY,1.1084,-1.0731,1.4289,0.3724,0.7776,0.7017,"",0.150,0.000,0.000,8,8,8,0,0,02,00,11*394b7c87
#BESTPOSA,USB1,0,53.5,FINESTEERING,1885,345119.750,00000000,b1f6,13386;SOL_COMPUTED,SINGLE,51.08068031079,-114.13092823896,1143.0499,-16.6000,WGS84,4.4601,7.8372,14.0925,"",0.000,0.000,6,6,6,0,00,02,00,11*d33ac900
#BESTVELA,USB1,0,53.5,FINESTEERING,1885,345119.750,00000000,10a2,13386;SOL_COMPUTED,DOPPLER_VELOCITY,0.150,0.000,1.5987,77.202181,1.8245,0*eeaca9cc
#BESTXYZA,USB1,0,53.5,FINESTEERING,1885,345119.750,00000000,fac1,13386;SOL_COMPUTED,SINGLE,-1641735.2353,-3664836.3837,4940064.6536,3.6811,13.5019,9.1685,SOL_COMPUTED,DOPPLER_VELOCITY,1.0668,-1.4319,1.6420,0.4400,1.6138,1.0958,"",0.150,0.000,0.000,6,6,6,0,0,02,00,11*83de998c
#BESTPOSA,USB1,0,53.5,FINESTEERING,1885,345120.000,00000000,b1f6,13386;SOL_COMPUTED,SINGLE,51.08067874755,-114.13091579363,1144.8671,-16.6000,WGS84,4.4558,7.7318,13.5984,"",0.000,0.000,6,6,6,0,00,02,00,11*db232812
#BESTVELA,USB1,0,53.5,FINESTEERING,1885,345120.000,00000000,10a2,13386;SOL_COMPUTED,DOPPLER_VELOCITY,0.150,0.000,0.9744,78.811511,0.9833,0*de4a3b98
#BESTXYZA,USB1,0,53.5,FINESTEERING,1885,345120.000,00000000,fac1,13386;SOL_COMPUTED,SINGLE,-1641734.9613,-3664837.9056,4940065.9582,3.6728,13.2388,8.7061,SOL_COMPUTED,DOPPLER_VELOCITY,0.6799,-0.8203,0.8838,0.4390,1.5823,1.0406,"",0.150,0.000,0.000,6,6,6,0,0,02,00,11*339f7fdd
#BESTPOSA,USB1,0,53.5,FINESTEERING,1885,345120.250,00000000,b1f6,13386;SOL_COMPUTED,SINGLE,51.08060269641,-114.13075864882,1169.8543,-16.6000,WGS84,2.3881,4.6506,7.0053,"",0.000,0.000,9,9,9,0,00,02,00,11*6e77513e
#BESTVELA,USB1,0,53.5,FINESTEERING,1885,345120.250,00000000,10a2,13386;SOL_COMPUTED,DOPPLER_VELOCITY,0.150,0.000,1.6846,93.478032,1.8503,0*c9810a39
#BESTXYZA,USB1,0,53.5,FINESTEERING,1885,345120.250,00000000,fac1,13386;SOL_COMPUTED,SINGLE,-1641734.0189,-3664862.7428,4940080.0828,2.9919,6.1222,5.4747,SOL_COMPUTED,DOPPLER_VELOCITY,1.0268,-1.8208,1.3754,0.3576,0.7317,0.6544,"",0.150,0.000,0.000,9,9,9,0,0,02,00,11*a693eb8f
#BESTPOSA,USB1,0,53.5,FINESTEERING,1885,345120.500,00000000,b1f6,13386;SOL_COMPUTED,SINGLE,51.08061215367,-114.13073212386,1167.4772,-16.6000,WGS84,3.2696,4.5076,8.9466,"",0.000,0.000,8,8,8,0,00,02,00,11*d6bb4f18
#BESTVELA,USB1,0,53.5,FINESTEERING,1885,345120.500,00000000,10a2,13386;SOL_COMPUTED,DOPPLER_VELOCITY,0.150,0.000,1.2012,81.788514,1.0239,0*b6b32da8
#BESTXYZA,USB1,0,53.5,FINESTEERING,1885,345120.500,00000000,fac1,13386;SOL_COMPUTED,SINGLE,-1641731.3770,-3664861.3928,4940078.8945,2.9105,8.0040,6.2061,SOL_COMPUTED,DOPPLER_VELOCITY,0.8766,-0.9513,0.9044,0.3479,0.9567,0.7418,"",0.150,0.000,0.000,8,8,8,0,0,02,00,11*953286d4
#BESTPOSA,USB1,0,54.5,FINESTEERING,1885,345120.750,00000000,b1f6,13386;SOL_COMPUTED,SINGLE,51.08060758383,-114.13051769014,1205.3336,-16.6000,WGS84,3.7364,2.4174,7.8494,"",0.000,0.000,6,6,6,0,00,02,00,11*c3ec6e46
#BESTVELA,USB1,0,54.5,FINESTEERING,1885,345120.750,00000000,10a2,13386;SOL_COMPUTED,DOPPLER_VELOCITY,0.150,0.000,0.3502,54.806362,-1.3262,0*4b078824
#BESTXYZA,USB1,0,54.5,FINESTEERING,1885,345120.750,00000000,fac1,13386;SOL_COMPUTED,SINGLE,-1641727.5454,-3664889.6023,4940108.0284,2.9834,3.5741,7.7293,SOL_COMPUTED,DOPPLER_VELOCITY,0.6660,0.7867,-0.9051,0.3566,0.4272,0.9238,"",0.150,0.000,0.000,6,6,6,0,0,02,00,11*0e1c067f
#BESTPOSA,USB1,0,54.5,FINESTEERING,1885,345121.000,00000000,b1f6,13386;SOL_COMPUTED,SINGLE,51.08061708389,-114.13049429654,1214.7907,-16.6000,WGS84,3.5294,2.3106,7.5215,"",0.000,0.000,7,7,7,0,00,02,00,11*4265bf82
#BESTVELA,USB1,0,54.5,FINESTEERING,1885,345121.000,00000000,10a2,13386;SOL_COMPUTED,DOPPLER_VELOCITY,0.150,0.000,0.2975,83.507302,-2.0702,0*edb6c8e6
#BESTXYZA,USB1,0,54.5,FINESTEERING,1885,345121.000,00000000,fac1,13386;SOL_COMPUTED,SINGLE,-1641728.1416,-3664894.9441,4940116.0504,2.7680,3.7381,7.2618,SOL_COMPUTED,DOPPLER_VELOCITY,0.8121,1.0900,-1.5896,0.3308,0.4468,0.8679,"",0.150,0.000,0.000,7,7,7,0,0,02,00,11*21e9a63a
#BESTPOSA,USB1,0,54.5,FINESTEERING,1885,345121.250,00000000,b1f6,13386;SOL_COMPUTED,SINGLE,51.08060024136,-114.13047372525,1213.9274,-16.6000,WGS84,3.7470,2.7020,8.4348,"",0.000,0.000,5,5,5,0,00,02,00,11*e5017a45
#BESTVELA,USB1,0,54.5,FINESTEERING,1885,345121.250,00000000,10a2,13386;SOL_COMPUTED,DOPPLER_VELOCITY,0.150,0.000,0.4348,40.758321,-0.7880,0*f082e068
#BESTXYZA,USB1,0,54.5,FINESTEERING,1885,345121.250,00000000,fac1,13386;SOL_COMPUTED,SINGLE,-1641727.2002,-3664896.3692,4940114.2014,3.0045,4.3402,8.0389,SOL_COMPUTED,DOPPLER_VELOCITY,0.5662,0.5696,-0.4062,0.3591,0.5187,0.9608,"",0.150,0.000,0.000,5,5,5,0,0,02,00,11*ebda12f1
#BESTPOSA,USB1,0,47.5,FINESTEERING,1885,345121.500,00080000,b1f6,13386;INSUFFICIENT_OBS,SINGLE,51.08060024136,-114.13047372525,1213.9274,-16.6000,WGS84,3.7470,2.7020,8.4348,"",0.000,0.250,4,0,0,0,00,00,00,00*ef3737ff
#BESTVELA,USB1,0,47.5,FINESTEERING,1885,345121.500,00080000,10a2,13386;INSUFFICIENT_OBS,DOPPLER_VELOCITY,0.150,0.000,0.4348,40.758321,-0.7880,0*1d383f70
#BESTXYZA,USB1,0,47.5,FINESTEERING,1885,345121.500,00080000,fac1,13386;INSUFFICIENT_OBS,SINGLE,-1641727.2002,-3664896.3692,4940114.2014,3.0045,4.3402,8.0389,INSUFFICIENT_OBS,DOPPLER_VELOCITY,0.5662,0.5696,-0.4062,0.3591,0.5187,0.9608,"",0.150,0.000,0.250,4,0,0,0,0,00,00,00*e5a90c93
#BESTPOSA,USB1,0,47.5,FINESTEERING,1885,345121.750,00080000,b1f6,13386;SOL_COMPUTED,SINGLE,51.08067213974,-114.13093278075,1133.8419,-16.6000,WGS84,4.4762,10.7380,25.8960,"",0.000,0.000,5,5,5,0,00,02,00,11*d36af288
#BESTVELA,USB1,0,47.5,FINESTEERING,1885,345121.750,00080000,10a2,13386;SOL_COMPUTED,DOPPLER_VELOCITY,0.150,0.000,0.6630,91.550382,-0.3830,0*d631f670
#BESTXYZA,USB1,0,47.5,FINESTEERING,1885,345121.750,00080000,fac1,13386;SOL_COMPUTED,SINGLE,-1641733.4501,-3664831.6199,4940056.9183,3.8370,20.4952,19.2657,SOL_COMPUTED,DOPPLER_VELOCITY,0.6975,-0.0641,-0.3092,0.4586,2.4497,2.3027,"",0.150,0.000,0.000,5,5,5,0,0,02,00,11*6f95d751
#BESTPOSA,USB1,0,47.5,FINESTEERING,1885,345122.000,00000000,b1f6,13386;SOL_COMPUTED,SINGLE,51.08067108616,-114.13092870512,1134.2242,-16.6000,WGS84,4.4612,10.6298,25.6296,"",0.000,0.000,5,5,5,0,00,02,00,11*6b78fc6f
#BESTVELA,USB1,0,47.5,FINESTEERING,1885,345122.000,00000000,10a2,13386;SOL_COMPUTED,DOPPLER_VELOCITY,0.150,0.000,0.7134,114.724910,-0.2561,0*47157aa4
#BESTXYZA,USB1,0,47.5,FINESTEERING,1885,345122.000,00000000,fac1,13386;SOL_COMPUTED,SINGLE,-1641733.3249,-3664832.0391,4940057.1421,3.8208,20.2744,19.0819,SOL_COMPUTED,DOPPLER_VELOCITY,0.5623,-0.3299,-0.3867,0.4567,2.4233,2.2807,"",0.150,0.000,0.000,5,5,5,0,0,02,00,11*18480010
#BESTPOSA,USB1,0,47.5,FINESTEERING,1885,345122.250,00000000,b1f6,13386;SOL_COMPUTED,SINGLE,51.08067007082,-114.13092146080,1135.0867,-16.6000,WGS84,4.4765,10.7342,25.8871,"",0.000,0.000,5,5,5,0,00,02,00,11*31d5697c
#BESTVELA,USB1,0,47.5,FINESTEERING,1885,345122.250,00000000,10a2,13386;SOL_COMPUTED,DOPPLER_VELOCITY,0.150,0.000,1.5606,92.960310,1.6534,0*babada41
#BESTXYZA,USB1,0,47.5,FINESTEERING,1885,345122.250,00000000,fac1,13386;SOL_COMPUTED,SINGLE,-1641733.1190,-3664832.8214,4940057.7422,3.8313,20.4897,19.2587,SOL_COMPUTED,DOPPLER_VELOCITY,0.9720,-1.6423,1.2358,0.4579,2.4490,2.3019,"",0.150,0.000,0.000,5,5,5,0,0,02,00,11*bf6e57cb
#BESTPOSA,USB1,0,47.5,FINESTEERING,1885,345122.500,00000000,b1f6,13386;SOL_COMPUTED,SINGLE,51.08067047595,-114.13091959240,1134.7889,-16.6000,WGS84,4.4779,10.7535,25.9352,"",0.000,0.000,5,5,5,0,00,02,00,11*1fdee308
#BESTVELA,USB1,0,47.5,FINESTEERING,1885,345122.500,00000000,10a2,13386;SOL_COMPUTED,DOPPLER_VELOCITY,0.150,0.000,1.2275,103.583859,0.8453,0*353a964f
#BESTXYZA,USB1,0,47.5,FINESTEERING,1885,345122.500,00000000,fac1,13386;SOL_COMPUTED,SINGLE,-1641732.9086,-3664832.6722,4940057.5388,3.8303,20.5310,19.2907,SOL_COMPUTED,DOPPLER_VELOCITY,0.7801,-1.1771,0.4765,0.4578,2.4539,2.3057,"",0.150,0.000,0.000,5,5,5,0,0,02,00,11*714a683e
#BESTPOSA,USB1,0,47.5,FINESTEERING,1885,345122.750,00000000,b1f6,13386;SOL_COMPUTED,SINGLE,51.08066914333,-114.13090799040,1136.1443,-16.6000,WGS84,4.4543,10.5858,25.5205,"",0.000,0.000,5,5,5,0,00,02,00,11*456e2073
#BESTVELA,USB1,0,47.5,FINESTEERING,1885,345122.750,00000000,10a2,13386;SOL_COMPUTED,DOPPLER_VELOCITY,0.150,0.000,1.2614,99.625605,0.5271,0*c5fb0d0a
#BESTXYZA,USB1,0,47.5,FINESTEERING,1885,345122.750,00000000,fac1,13386;SOL_COMPUTED,SINGLE,-1641732.5618,-3664833.8870,4940058.5002,3.8091,20.1868,19.0048,SOL_COMPUTED,DOPPLER_VELOCITY,0.9325,-0.9604,0.2776,0.4553,2.4128,2.2715,"",0.150,0.000,0.000,5,5,5,0,0,02,00,11*ee2b4459
#BESTPOSA,USB1,0,47.5,FINESTEERING,1885,345123.000,00000000,b1f6,13386;SOL_COMPUTED,SINGLE,51.08066974616,-114.13090989983,1135.2747,-16.6000,WGS84,4.4539,10.5803,25.5041,"",0.000,0.000,5,5,5,0,00,02,00,11*14cba093
#BESTVELA,USB1,0,47.5,FINESTEERING,1885,345123.000,00000000,10a2,13386;SOL_COMPUTED,DOPPLER_VELOCITY,0.150,0.000,0.1666,90.256794,-0.9970,0*83264e43
#BESTXYZA,USB1,0,47.5,FINESTEERING,1885,345123.000,00000000,fac1,13386;SOL_COMPUTED,SINGLE,-1641732.4393,-3664833.2861,4940057.8658,3.8097,20.1740,18.9929,SOL_COMPUTED,DOPPLER_VELOCITY,0.4079,0.5030,-0.7762,0.4553,2.4113,2.2701,"",0.150,0.000,0.000,5,5,5,0,0,02,00,11*d1d9c77d
#BESTPOSA,USB1,0,51.5,FINESTEERING,1885,345123.250,00000000,b1f6,13386;SOL_COMPUTED,SINGLE,51.08067093002,-114.13091921939,1133.3655,-16.6000,WGS84,4.4551,10.5881,25.5221,"",0.000,0.000,5,5,5,0,00,02,00,11*57eb7a22
#BESTVELA,USB1,0,51.5,FINESTEERING,1885,345123.250,00000000,10a2,13386;SOL_COMPUTED,DOPPLER_VELOCITY,0.150,0.000,0.6248,107.088312,-0.4808,0*2953b32e
#BESTXYZA,USB1,0,51.5,FINESTEERING,1885,345123.250,00000000,fac1,13386;SOL_COMPUTED,SINGLE,-1641732.5031,-3664831.8310,4940056.4632,3.8101,20.1900,19.0048,SOL_COMPUTED,DOPPLER_VELOCITY,0.6102,-0.0989,-0.4894,0.4554,2.4132,2.2715,"",0.150,0.000,0.000,5,5,5,0,0,02,00,11*7e501e85
#BESTPOSA,USB1,0,51.5,FINESTEERING,1885,345123.500,00000000,b1f6,13386;SOL_COMPUTED,SINGLE,51.08067217079,-114.13092144495,1132.3368,-16.6000,WGS84,4.4535,10.5794,25.5023,"",0.000,0.000,5,5,5,0,00,02,00,11*646bb518
#BESTVELA,USB1,0,51.5,FINESTEERING,1885,345123.500,00000000,10a2,13386;SOL_COMPUTED,DOPPLER_VELOCITY,0.150,0.000,0.6005,88.389428,-0.1087,0*2aeb0122
#BESTXYZA,USB1,0,51.5,FINESTEERING,1885,345123.500,00000000,fac1,13386;SOL_COMPUTED,SINGLE,-1641732.3374,-3664831.0793,4940055.7495,3.8046,20.1745,18.9905,SOL_COMPUTED,DOPPLER_VELOCITY,0.5811,-0.1711,-0.0740,0.4547,2.4113,2.2698,"",0.150,0.000,0.000,5,5,5,0,0,02,00,11*bc7468d2
#BESTPOSA,USB1,0,51.5,FINESTEERING,1885,345123.750,00000000,b1f6,13386;SOL_COMPUTED,SINGLE,51.08067132816,-114.13091158307,1133.5543,-16.6000,WGS84,4.4498,10.5559,25.4454,"",0.000,0.000,5,5,5,0,00,02,00,11*21f4131f
#BESTVELA,USB1,0,51.5,FINESTEERING,1885,345123.750,00000000,10a2,13386;SOL_COMPUTED,DOPPLER_VELOCITY,0.150,0.000,0.7463,97.934989,0.5297,0*5358251e
#BESTXYZA,USB1,0,51.5,FINESTEERING,1885,345123.750,00000000,fac1,13386;SOL_COMPUTED,SINGLE,-1641732.0491,-3664832.1265,4940056.6378,3.7978,20.1282,18.9506,SOL_COMPUTED,DOPPLER_VELOCITY,0.5057,-0.6790,0.3474,0.4539,2.4058,2.2650,"",0.150,0.000,0.000,5,5,5,0,0,02,00,11*ebb67600
#BESTPOSA,USB1,0,51.5,FINESTEERING,1885,345124.000,00000000,b1f6,13386;SOL_COMPUTED,SINGLE,51.08067040585,-114.13090669459,1133.9484,-16.6000,WGS84,4.3942,10.4203,25.2894,"",0.000,0.000,6,6,6,0,00,02,00,11*2d3c9695
#BESTVELA,USB1,0,51.5,FINESTEERING,1885,345124.000,00000000,10a2,13386;SOL_COMPUTED,DOPPLER_VELOCITY,0.150,0.000,1.0474,84.991360,0.0681,0*4bf3f65d
#BESTXYZA,USB1,0,51.5,FINESTEERING,1885,345124.000,00000000,fac1,13386;SOL_COMPUTED,SINGLE,-1641731.8703,-3664832.5654,4940056.8800,3.7421,19.9402,18.8635,SOL_COMPUTED,DOPPLER_VELOCITY,0.9638,-0.4007,0.1104,0.4473,2.3833,2.2546,"",0.150,0.000,0.000,6,6,6,0,0,02,00,11*c3bb6579
#BESTPOSA,USB1,0,52.5,FINESTEERING,1885,345124.250,00000000,b1f6,13386;SOL_COMPUTED,SINGLE,51.08063777137,-114.13068277537,1170.7499,-16.6000,WGS84,4.0691,7.6015,18.8155,"",0.000,0.000,7,7,7,0,00,02,00,11*8f2703ef
#BESTVELA,USB1,0,52.5,FINESTEERING,1885,345124.250,00000000,10a2,13386;SOL_COMPUTED,DOPPLER_VELOCITY,0.150,0.000,0.5922,90.073665,-0.8035,0*942019ad
#BESTXYZA,USB1,0,52.5,FINESTEERING,1885,345124.250,00000000,fac1,13386;SOL_COMPUTED,SINGLE,-1641728.1544,-3664862.6592,4940083.2315,3.3650,14.4133,14.4671,SOL_COMPUTED,DOPPLER_VELOCITY,0.7465,0.2180,-0.6256,0.4022,1.7227,1.7291,"",0.150,0.000,0.000,7,7,7,0,0,02,00,11*6272d28d
#BESTPOSA,USB1,0,52.5,FINESTEERING,1885,345124.500,00000000,b1f6,13386;SOL_COMPUTED,SINGLE,51.08062592322,-114.13056617421,1192.4169,-16.6000,WGS84,3.6279,5.1960,14.0199,"",0.000,0.000,7,7,7,0,00,02,00,11*52886ebc
#BESTVELA,USB1,0,52.5,FINESTEERING,1885,345124.500,00000000,10a2,13386;SOL_COMPUTED,DOPPLER_VELOCITY,0.150,0.000,0.3577,134.473731,-1.5997,0*2142d3e4
#BESTXYZA,USB1,0,52.5,FINESTEERING,1885,345124.500,00000000,fac1,13386;SOL_COMPUTED,SINGLE,-1641726.6802,-3664879.3586,4940099.2608,2.8913,10.0623,11.2743,SOL_COMPUTED,DOPPLER_VELOCITY,0.5641,0.6349,-1.4021,0.3456,1.2027,1.3475,"",0.150,0.000,0.000,7,7,7,0,0,02,00,11*19282a5e
#BESTPOSA,USB1,0,52.5,FINESTEERING,1885,345124.750,00000000,b1f6,13386;SOL_COMPUTED,SINGLE,51.08061215261,-114.13044859466,1213.2569,-16.6000,WGS84,3.5121,2.4358,7.8105,"",0.000,0.000,7,7,7,0,00,02,00,11*8a0a7552
#BESTVELA,USB1,0,52.5,FINESTEERING,1885,345124.750,00000000,10a2,13386;SOL_COMPUTED,DOPPLER_VELOCITY,0.150,0.000,0.4071,47.039355,-1.5809,0*513e45e5
#BESTXYZA,USB1,0,52.5,FINESTEERING,1885,345124.750,00000000,fac1,13386;SOL_COMPUTED,SINGLE,-1641724.9989,-3664895.7638,4940114.5124,2.7411,4.0975,7.4140,SOL_COMPUTED,DOPPLER_VELOCITY,0.7661,0.9816,-1.0557,0.3276,0.4897,0.8861,"",0.150,0.000,0.000,7,7,7,0,0,02,00,11*758674bd
#BESTPOSA,USB1,0,48.5,FINESTEERING,1885,345125.000,00000000,b1f6,13386;SOL_COMPUTED,SINGLE,51.08060984985,-114.13043457252,1214.4960,-16.6000,WGS84,3.5051,2.1447,7.2406,"",0.000,0.000,7,7,7,0,00,02,00,11*f4a4b988
#BESTVELA,USB1,0,48.5,FINESTEERING,1885,345125.000,00000000,10a2,13386;SOL_COMPUTED,DOPPLER_VELOCITY,0.150,0.000,0.3134,57.973366,-1.7479,0*7da08389
#BESTXYZA,USB1,0,48.5,FINESTEERING,1885,345125.000,00000000,fac1,13386;SOL_COMPUTED,SINGLE,-1641724.5018,-3664897.0580,4940115.3155,2.7319,3.3819,7.1000,SOL_COMPUTED,DOPPLER_VELOCITY,0.7442,1.0115,-1.2555,0.3265,0.4042,0.8486,"",0.150,0.000,0.000,7,7,7,0,0,02,00,11*7eeea2a6
#BESTPOSA,USB1,0,48.5,FINESTEERING,1885,345125.250,00000000,b1f6,13386;SOL_COMPUTED,SINGLE,51.08061022335,-114.13042840849,1215.3111,-16.6000,WGS84,3.5078,2.1887,7.3267,"",0.000,0.000,7,7,7,0,00,02,00,11*1cae7c08
#BESTVELA,USB1,0,48.5,FINESTEERING,1885,345125.250,00000000,10a2,13386;SOL_COMPUTED,DOPPLER_VELOCITY,0.150,0.000,0.7115,87.534540,-0.9588,0*bb74edb0
#BESTXYZA,USB1,0,48.5,FINESTEERING,1885,345125.250,00000000,fac1,13386;SOL_COMPUTED,SINGLE,-1641724.3036,-3664897.6724,4940115.9758,2.7352,3.4902,7.1494,SOL_COMPUTED,DOPPLER_VELOCITY,0.9047,0.2808,-0.7268,0.3269,0.4172,0.8545,"",0.150,0.000,0.000,7,7,7,0,0,02,00,11*708caf63
#BESTPOSA,USB1,0,48.5,FINESTEERING,1885,345125.500,00000000,b1f6,13386;SOL_COMPUTED,SINGLE,51.08067196053,-114.13091625867,1128.5797,-16.6000,WGS84,3.9538,9.5355,24.6555,"",0.000,0.000,6,6,6,0,00,02,00,11*58e75caa
#BESTVELA,USB1,0,48.5,FINESTEERING,1885,345125.500,00000000,10a2,13386;SOL_COMPUTED,DOPPLER_VELOCITY,0.150,0.000,1.2178,88.398330,1.8797,0*931a4e08
#BESTXYZA,USB1,0,48.5,FINESTEERING,1885,345125.500,00000000,fac1,13386;SOL_COMPUTED,SINGLE,-1641731.0481,-3664829.0905,4940052.8117,3.2984,18.9126,18.5980,SOL_COMPUTED,DOPPLER_VELOCITY,0.6390,-1.5512,1.4838,0.3942,2.2605,2.2229,"",0.150,0.000,0.000,6,6,6,0,0,02,00,11*4724c6f6
#BESTPOSA,USB1,0,48.5,FINESTEERING,1885,345125.750,00000000,b1f6,13386;SOL_COMPUTED,SINGLE,51.08064516038,-114.13069341504,1167.3067,-16.6000,WGS84,3.7506,7.1235,18.6881,"",0.000,0.000,7,7,7,0,00,02,00,11*00d39b2b
#BESTVELA,USB1,0,48.5,FINESTEERING,1885,345125.750,00000000,10a2,13386;SOL_COMPUTED,DOPPLER_VELOCITY,0.150,0.000,0.3320,56.019737,-1.2553,0*033c91b2
#BESTXYZA,USB1,0,48.5,FINESTEERING,1885,345125.750,00000000,fac1,13386;SOL_COMPUTED,SINGLE,-1641727.6891,-3664859.7964,4940081.0691,3.0475,14.0164,14.4329,SOL_COMPUTED,DOPPLER_VELOCITY,0.6327,0.7389,-0.8601,0.3642,1.6753,1.7251,"",0.150,0.000,0.000,7,7,7,0,0,02,00,11*6c725b6d
#BESTPOSA,USB1,0,48.5,FINESTEERING,1885,345126.000,00000000,b1f6,13386;SOL_COMPUTED,SINGLE,51.08061541556,-114.13045316488,1209.3736,-16.6000,WGS84,3.5032,2.1860,7.3259,"",0.000,0.000,7,7,7,0,00,02,00,11*d5cd8177
#BESTVELA,USB1,0,48.5,FINESTEERING,1885,345126.000,00000000,10a2,13386;SOL_COMPUTED,DOPPLER_VELOCITY,0.150,0.000,0.4320,55.631158,-1.0510,0*a7f63093
#BESTXYZA,USB1,0,48.5,FINESTEERING,1885,345126.000,00000000,fac1,13386;SOL_COMPUTED,SINGLE,-1641724.1784,-3664893.1486,4940111.7191,2.7297,3.4965,7.1445,SOL_COMPUTED,DOPPLER_VELOCITY,0.6729,0.6300,-0.6645,0.3263,0.4179,0.8539,"",0.150,0.000,0.000,7,7,7,0,0,02,00,11*2d226cbf
#BESTPOSA,USB1,0,50.5,FINESTEERING,1885,345126.250,00000000,b1f6,13386;SOL_COMPUTED,SINGLE,51.08061719220,-114.13045832331,1208.7806,-16.6000,WGS84,3.5020,2.1710,7.2969,"",0.000,0.000,7,7,7,0,00,02,00,11*2a149139
#BESTVELA,USB1,0,50.5,FINESTEERING,1885,345126.250,00000000,10a2,13386;SOL_COMPUTED,DOPPLER_VELOCITY,0.150,0.000,0.3081,15.764296,-0.4114,0*9f0890a7
#BESTXYZA,USB1,0,50.5,FINESTEERING,1885,345126.250,00000000,fac1,13386;SOL_COMPUTED,SINGLE,-1641724.2932,-3664892.5205,4940111.3820,2.7284,3.4607,7.1274,SOL_COMPUTED,DOPPLER_VELOCITY,0.2764,0.4122,-0.1338,0.3261,0.4136,0.8519,"",0.150,0.000,0.000,7,7,7,0,0,02,00,11*2819262c
#BESTPOSA,USB1,0,50.5,FINESTEERING,1885,345126.500,00000000,b1f6,13386;SOL_COMPUTED,SINGLE,51.08061594527,-114.13045897258,1208.2858,-16.6000,WGS84,3.5019,2.1695,7.2934,"",0.000,0.000,7,7,7,0,00,02,00,11*06596eb9
#BESTVELA,USB1,0,50.5,FINESTEERING,1885,345126.500,00000000,10a2,13386;SOL_COMPUTED,DOPPLER_VELOCITY,0.150,0.000,0.2386,23.741520,-1.0699,0*4b9bc2e3
#BESTXYZA,USB1,0,50.5,FINESTEERING,1885,345126.500,00000000,fac1,13386;SOL_COMPUTED,SINGLE,-1641724.2518,-3664892.3168,4940110.9099,2.7292,3.4560,7.1254,SOL_COMPUTED,DOPPLER_VELOCITY,0.4319,0.7292,-0.6952,0.3262,0.4131,0.8516,"",0.150,0.000,0.000,7,7,7,0,0,02,00,11*7c61fded
#BESTPOSA,USB1,0,50.5,FINESTEERING,1885,345126.750,00000000,b1f6,13386;SOL_COMPUTED,SINGLE,51.08061240720,-114.13045752300,1210.4498,-16.6000,WGS84,3.5042,2.1708,7.3503,"",0.000,0.000,6,6,6,0,00,02,00,11*de47abd3
#BESTVELA,USB1,0,50.5,FINESTEERING,1885,345126.750,00000000,10a2,13386;SOL_COMPUTED,DOPPLER_VELOCITY,0.150,0.000,0.3691,135.298060,-1.2438,0*9380fe77
#BESTXYZA,USB1,0,50.5,FINESTEERING,1885,345126.750,00000000,fac1,13386;SOL_COMPUTED,SINGLE,-1641724.8401,-3664893.8785,4940112.3462,2.7407,3.5033,7.1578,SOL_COMPUTED,DOPPLER_VELOCITY,0.4730,0.4207,-1.1325,0.3276,0.4187,0.8555,"",0.150,0.000,0.000,6,6,6,0,0,02,00,11*d86eca93
#BESTPOSA,USB1,0,44.0,FINESTEERING,1885,345127.000,00000000,b1f6,13386;SOL_COMPUTED,SINGLE,51.08061368633,-114.13046421279,1208.9640,-16.6000,WGS84,3.5028,2.2312,7.4748,"",0.000,0.000,6,6,6,0,00,02,00,11*300018c2
#BESTVELA,USB1,0,44.0,FINESTEERING,1885,345127.000,00000000,10a2,13386;SOL_COMPUTED,DOPPLER_VELOCITY,0.150,0.000,0.3003,146.925426,-0.9644,0*0978cbc7
#BESTXYZA,USB1,0,44.0,FINESTEERING,1885,345127.000,00000000,fac1,13386;SOL_COMPUTED,SINGLE,-1641724.8411,-3664892.7339,4940111.2796,2.7387,3.6668,7.2233,SOL_COMPUTED,DOPPLER_VELOCITY,0.3172,0.3072,-0.9084,0.3273,0.4383,0.8633,"",0.150,0.000,0.000,6,6,6,0,0,02,00,11*97c74a34
#BESTPOSA,USB1,0,44.0,FINESTEERING,1885,345127.250,00000000,b1f6,13386;SOL_COMPUTED,SINGLE,51.08061495095,-114.13047110557,1207.4294,-16.6000,WGS84,3.4980,2.1475,7.3078,"",0.000,0.000,6,6,6,0,00,02,00,11*7026ec8d
#BESTVELA,USB1,0,44.0,FINESTEERING,1885,345127.250,00000000,10a2,13386;SOL_COMPUTED,DOPPLER_VELOCITY,0.150,0.000,0.1375,176.310663,-0.5535,0*4ae7ef99
#BESTXYZA,USB1,0,44.0,FINESTEERING,1885,345127.250,00000000,fac1,13386;SOL_COMPUTED,SINGLE,-1641724.8432,-3664891.5567,4940110.1741,2.7331,3.4565,7.1298,SOL_COMPUTED,DOPPLER_VELOCITY,0.1066,0.2163,-0.5168,0.3267,0.4131,0.8522,"",0.150,0.000,0.000,6,6,6,0,0,02,00,11*e080f9fa
#BESTPOSA,USB1,0,44.0,FINESTEERING,1885,345127.500,00000000,b1f6,13386;SOL_COMPUTED,SINGLE,51.08065278079,-114.13076642015,1153.1238,-16.6000,WGS84,6.2681,25.6994,67.5482,"",0.000,0.000,5,5,5,0,00,02,00,11*651b5d9a
#BESTVELA,USB1,0,44.0,FINESTEERING,1885,345127.500,00000000,10a2,13386;SOL_COMPUTED,DOPPLER_VELOCITY,0.150,0.000,0.9076,104.294807,1.2917,0*3d39d5d5
#BESTXYZA,USB1,0,44.0,FINESTEERING,1885,345127.500,00000000,fac1,13386;SOL_COMPUTED,SINGLE,-1641728.4465,-3664848.9711,4940070.5670,5.2379,52.7773,49.4937,SOL_COMPUTED,DOPPLER_VELOCITY,0.3996,-1.2592,0.8642,0.6260,6.3081,5.9156,"",0.150,0.000,0.000,5,5,5,0,0,02,00,11*107686d5
#BESTPOSA,USB1,0,44.0,FINESTEERING,1885,345127.750,00000000,b1f6,13386;SOL_COMPUTED,SINGLE,51.08065249264,-114.13076220035,1153.6837,-16.6000,WGS84,6.2616,25.6691,67.4665,"",0.000,0.000,5,5,5,0,00,02,00,11*76d0c686
#BESTVELA,USB1,0,44.0,FINESTEERING,1885,345127.750,00000000,10a2,13386;SOL_COMPUTED,DOPPLER_VELOCITY,0.150,0.000,2.3734,95.122814,4.3695,0*3292ab60
#BESTXYZA,USB1,0,44.0,FINESTEERING,1885,345127.750,00000000,fac1,13386;SOL_COMPUTED,SINGLE,-1641728.3306,-3664849.4358,4940070.9825,5.2334,52.7130,49.4347,SOL_COMPUTED,DOPPLER_VELOCITY,0.9677,-3.6221,3.2665,0.6255,6.3004,5.9086,"",0.150,0.000,0.000,5,5,5,0,0,02,00,11*7fd73172
#BESTPOSA,USB1,0,44.0,FINESTEERING,1885,345128.000,00000000,b1f6,13386;SOL_COMPUTED,SINGLE,51.08064962587,-114.13074368894,1156.7540,-16.6000,WGS84,6.2526,25.6213,67.3513,"",0.000,0.000,5,5,5,0,00,02,00,11*c6b6ef5a
#BESTVELA,USB1,0,44.0,FINESTEERING,1885,345128.000,00000000,10a2,13386;SOL_COMPUTED,DOPPLER_VELOCITY,0.150,0.000,0.8860,80.442940,0.6178,0*0ee0af25
#BESTXYZA,USB1,0,44.0,FINESTEERING,1885,345128.000,00000000,fac1,13386;SOL_COMPUTED,SINGLE,-1641728.0365,-3664851.9530,4940073.1709,5.2242,52.6197,49.3520,SOL_COMPUTED,DOPPLER_VELOCITY,0.6855,-0.6069,0.5730,0.6244,6.2893,5.8987,"",0.150,0.000,0.000,5,5,5,0,0,02,00,11*b6e979e9
#BESTPOSA,USB1,0,48.0,FINESTEERING,1885,345128.250,00000000,b1f6,13386;SOL_COMPUTED,SINGLE,51.08064849429,-114.13073183292,1158.4292,-16.6000,WGS84,6.2464,25.5968,67.2806,"",0.000,0.000,5,5,5,0,00,02,00,11*1fad25da
#BESTVELA,USB1,0,48.0,FINESTEERING,1885,345128.250,00000000,10a2,13386;SOL_COMPUTED,DOPPLER_VELOCITY,0.150,0.000,3.9198,96.968422,8.0366,0*f7f0269a
#BESTXYZA,USB1,0,48.0,FINESTEERING,1885,345128.250,00000000,fac1,13386;SOL_COMPUTED,SINGLE,-1641727.7484,-3664853.3425,4940074.3952,5.2215,52.5643,49.3014,SOL_COMPUTED,DOPPLER_VELOCITY,1.3355,-6.5359,5.9540,0.6241,6.2826,5.8926,"",0.150,0.000,0.000,5,5,5,0,0,02,00,11*9e4c72cd
#BESTPOSA,USB1,0,48.0,FINESTEERING,1885,345128.500,00000000,b1f6,13386;SOL_COMPUTED,SINGLE,51.08065873101,-114.13081042363,1143.3202,-16.6000,WGS84,4.2996,12.7523,33.2788,"",0.000,0.000,6,6,6,0,00,02,00,11*beb70d39
#BESTVELA,USB1,0,48.0,FINESTEERING,1885,345128.500,00000000,10a2,13386;SOL_COMPUTED,DOPPLER_VELOCITY,0.150,0.000,0.4904,101.398358,-0.2076,0*2245cb1d
#BESTXYZA,USB1,0,48.0,FINESTEERING,1885,345128.500,00000000,fac1,13386;SOL_COMPUTED,SINGLE,-1641728.5326,-3664841.6194,4940063.3554,3.5851,25.7684,24.7330,SOL_COMPUTED,DOPPLER_VELOCITY,0.4612,-0.1463,-0.2224,0.4285,3.0799,2.9562,"",0.150,0.000,0.000,6,6,6,0,0,02,00,11*1d09e458
#BESTPOSA,USB1,0,48.0,FINESTEERING,1885,345128.750,00000000,b1f6,13386;SOL_COMPUTED,SINGLE,51.08065038154,-114.13073704132,1156.2539,-16.6000,WGS84,6.2306,25.5150,67.0767,"",0.000,0.000,5,5,5,0,00,02,00,11*d96c1b43
#BESTVELA,USB1,0,48.0,FINESTEERING,1885,345128.750,00000000,10a2,13386;SOL_COMPUTED,DOPPLER_VELOCITY,0.150,0.000,0.3944,75.198606,-2.2940,0*d5ad1748
#BESTXYZA,USB1,0,48.0,FINESTEERING,1885,345128.750,00000000,fac1,13386;SOL_COMPUTED,SINGLE,-1641727.4561,-3664851.7970,4940072.8346,5.2066,52.4011,49.1543,SOL_COMPUTED,DOPPLER_VELOCITY,0.9692,1.2308,-1.7215,0.6223,6.2631,5.8751,"",0.150,0.000,0.000,5,5,5,0,0,02,00,11*6d9a5694
#BESTPOSA,USB1,0,47.0,FINESTEERING,1885,345129.000,00000000,b1f6,13386;SOL_COMPUTED,SINGLE,51.08066533130,-114.13085527087,1133.7144,-16.6000,WGS84,3.9599,9.7787,25.3434,"",0.000,0.000,6,6,6,0,00,02,00,11*c1a400e5
#BESTVELA,USB1,0,47.0,FINESTEERING,1885,345129.000,00000000,10a2,13386;SOL_COMPUTED,DOPPLER_VELOCITY,0.150,0.000,0.9961,109.916743,0.4153,0*84f42d4d
#BESTXYZA,USB1,0,47.0,FINESTEERING,1885,345129.000,00000000,fac1,13386;SOL_COMPUTED,SINGLE,-1641728.7005,-3664834.3056,4940056.3432,3.2990,19.4543,19.0850,SOL_COMPUTED,DOPPLER_VELOCITY,0.6401,-0.8619,0.1100,0.3943,2.3252,2.2811,"",0.150,0.000,0.000,6,6,6,0,0,02,00,11*1d888726
#BESTPOSA,USB1,0,47.0,FINESTEERING,1885,345129.250,00000000,b1f6,13386;SOL_COMPUTED,SINGLE,51.08066657849,-114.13086170872,1131.8338,-16.6000,WGS84,3.9343,9.5296,24.6769,"",0.000,0.000,6,6,6,0,00,02,00,11*708b4aef
#BESTVELA,USB1,0,47.0,FINESTEERING,1885,345129.250,00000000,10a2,13386;SOL_COMPUTED,DOPPLER_VELOCITY,0.150,0.000,1.0290,88.151191,0.2377,0*f6477eed
#BESTXYZA,USB1,0,47.0,FINESTEERING,1885,345129.250,00000000,fac1,13386;SOL_COMPUTED,SINGLE,-1641728.5852,-3664832.9445,4940054.9672,3.2773,18.9209,18.6145,SOL_COMPUTED,DOPPLER_VELOCITY,0.8881,-0.5331,0.2058,0.3917,2.2615,2.2249,"",0.150,0.000,0.000,6,6,6,0,0,02,00,11*408b9f00
#BESTPOSA,USB1,0,47.0,FINESTEERING,1885,345129.500,00000000,b1f6,13386;SOL_COMPUTED,SINGLE,51.08066585659,-114.13085010128,1133.2308,-16.6000,WGS84,3.9360,9.5556,24.7476,"",0.000,0.000,6,6,6,0,00,02,00,11*62b5760e
#BESTVELA,USB1,0,47.0,FINESTEERING,1885,345129.500,00000000,10a2,13386;SOL_COMPUTED,DOPPLER_VELOCITY,0.150,0.000,1.1149,77.859842,-0.1895,0*d5337545
#BESTXYZA,USB1,0,47.0,FINESTEERING,1885,345129.500,00000000,fac1,13386;SOL_COMPUTED,SINGLE,-1641728.2271,-3664834.1350,4940056.0037,3.2786,18.9777,18.6640,SOL_COMPUTED,DOPPLER_VELOCITY,1.1180,-0.1705,-0.0001,0.3919,2.2683,2.2308,"",0.150,0.000,0.000,6,6,6,0,0,02,00,11*6c111fe1
#BESTPOSA,USB1,0,47.0,FINESTEERING,1885,345129.750,00000000,b1f6,13386;SOL_COMPUTED,SINGLE,51.08066638517,-114.13084883787,1132.7380,-16.6000,WGS84,3.9293,9.4984,24.5956,"",0.000,0.000,6,6,6,0,00,02,00,11*ba212df9
#BESTVELA,USB1,0,47.0,FINESTEERING,1885,345129.750,00000000,10a2,13386;SOL_COMPUTED,DOPPLER_VELOCITY,0.150,0.000,1.0100,84.371995,0.1226,0*5c369ac7
#BESTXYZA,USB1,0,47.0,FINESTEERING,1885,345129.750,00000000,fac1,13386;SOL_COMPUTED,SINGLE,-1641728.0010,-3664833.8469,4940055.6572,3.2728,18.8557,18.5567,SOL_COMPUTED,DOPPLER_VELOCITY,0.9173,-0.4108,0.1576,0.3912,2.2537,2.2179,"",0.150,0.000,0.000,6,6,6,0,0,02,00,11*1d789e36
#BESTPOSA,USB1,0,47.0,FINESTEERING,1885,345130.000,00000000,b1f6,13386;SOL_COMPUTED,SINGLE,51.08066477728,-114.13083132335,1135.4613,-16.6000,WGS84,3.9316,9.5283,24.6782,"",0.000,0.000,7,6,6,0,00,02,00,11*e5f7d4a8
#BESTVELA,USB1,0,47.0,FINESTEERING,1885,345130.000,00000000,10a2,13386;SOL_COMPUTED,DOPPLER_VELOCITY,0.150,0.000,0.9333,84.587528,-0.5520,0*03f28831
#BESTXYZA,USB1,0,47.0,FINESTEERING,1885,345130.000,00000000,fac1,13386;SOL_COMPUTED,SINGLE,-1641727.6370,-3664836.0372,4940057.6636,3.2746,18.9214,18.6149,SOL_COMPUTED,DOPPLER_VELOCITY,1.0177,-0.0008,-0.3742,0.3914,2.2615,2.2249,"",0.150,0.000,0.000,7,6,6,0,0,02,00,11*51febb2c
#BESTPOSA,USB1,0,51.0,FINESTEERING,1885,345130.250,00000000,b1f6,13386;SOL_COMPUTED,SINGLE,51.08066549475,-114.13082881642,1135.2358,-16.6000,WGS84,3.9301,9.5216,24.6618,"",0.000,0.000,7,6,6,0,00,02,00,11*75b45752
#BESTVELA,USB1,0,51.0,FINESTEERING,1885,345130.250,00000000,10a2,13386;SOL_COMPUTED,DOPPLER_VELOCITY,0.150,0.000,1.2561,79.519464,0.0359,0*057c4d0e
#BESTXYZA,USB1,0,51.0,FINESTEERING,1885,345130.250,00000000,fac1,13386;SOL_COMPUTED,SINGLE,-1641727.3934,-3664835.9230,4940057.5383,3.2731,18.9081,18.6032,SOL_COMPUTED,DOPPLER_VELOCITY,1.1907,-0.3633,0.1715,0.3912,2.2599,2.2235,"",0.150,0.000,0.000,7,6,6,0,0,02,00,11*dbb24687
#BESTPOSA,USB1,0,51.0,FINESTEERING,1885,345130.500,00000000,b1f6,13386;SOL_COMPUTED,SINGLE,51.08066731958,-114.13083888996,1132.5304,-16.6000,WGS84,3.9270,9.5008,24.6069,"",0.000,0.000,7,6,6,0,00,02,00,11*c1efdc98
#BESTVELA,USB1,0,51.0,FINESTEERING,1885,345130.500,00000000,10a2,13386;SOL_COMPUTED,DOPPLER_VELOCITY,0.150,0.000,1.4378,85.815750,0.7865,0*9bfbb1fc
#BESTXYZA,USB1,0,51.0,FINESTEERING,1885,345130.500,00000000,fac1,13386;SOL_COMPUTED,SINGLE,-1641727.2783,-3664833.9391,4940055.5610,3.2703,18.8641,18.5644,SOL_COMPUTED,DOPPLER_VELOCITY,1.1400,-0.9627,0.6778,0.3909,2.2547,2.2189,"",0.150,0.000,0.000,7,6,6,0,0,02,00,11*9408f0fa
#BESTPOSA,USB1,0,51.0,FINESTEERING,1885,345130.750,00000000,b1f6,13386;SOL_COMPUTED,SINGLE,51.08066783803,-114.13083853069,1131.7836,-16.6000,WGS84,3.9261,9.4945,24.5908,"",0.000,0.000,7,6,6,0,00,02,00,11*661d803e
#BESTVELA,USB1,0,51.0,FINESTEERING,1885,345130.750,00000000,10a2,13386;SOL_COMPUTED,DOPPLER_VELOCITY,0.150,0.000,1.3287,92.958329,0.4398,0*17b6be42
#BESTXYZA,USB1,0,51.0,FINESTEERING,1885,345130.750,00000000,fac1,13386;SOL_COMPUTED,SINGLE,-1641727.0452,-3664833.4803,4940055.0162,3.2696,18.8513,18.5528,SOL_COMPUTED,DOPPLER_VELOCITY,1.0762,-0.8433,0.2991,0.3908,2.2532,2.2175,"",0.150,0.000,0.000,7,6,6,0,0,02,00,11*18dcea9f
#BESTPOSA,USB1,0,50.0,FINESTEERING,1885,345131.000,00000000,b1f6,13386;SOL_COMPUTED,SINGLE,51.08065058533,-114.13070014447,1156.8897,-16.6000,WGS84,6.1752,25.2248,66.3292,"",0.000,0.000,6,5,5,0,00,02,00,11*55fc823a
#BESTVELA,USB1,0,50.0,FINESTEERING,1885,345131.000,00000000,10a2,13386;SOL_COMPUTED,DOPPLER_VELOCITY,0.150,0.000,0.3765,25.742297,-2.0282,0*28536e31
#BESTXYZA,USB1,0,50.0,FINESTEERING,1885,345131.000,00000000,fac1,13386;SOL_COMPUTED,SINGLE,-1641725.2521,-3664853.2026,4940073.3435,5.1581,51.8086,48.6133,SOL_COMPUTED,DOPPLER_VELOCITY,0.7780,1.3368,-1.3650,0.6165,6.1923,5.8104,"",0.150,0.000,0.000,6,5,5,0,0,02,00,11*f806ea3c
#BESTPOSA,USB1,0,50.0,FINESTEERING,1885,345131.250,00000000,b1f6,13386;SOL_COMPUTED,SINGLE,51.08067236584,-114.13086611675,1125.6519,-16.6000,WGS84,3.9445,9.6843,25.1022,"",0.000,0.000,7,6,6,0,00,02,00,11*f1f0c91a
#BESTVELA,USB1,0,50.0,FINESTEERING,1885,345131.250,00000000,10a2,13386;SOL_COMPUTED,DOPPLER_VELOCITY,0.150,0.000,0.6916,88.352923,-0.3317,0*23ca6d79
#BESTXYZA,USB1,0,50.0,FINESTEERING,1885,345131.250,00000000,fac1,13386;SOL_COMPUTED,SINGLE,-1641727.0746,-3664828.8167,4940050.5621,3.2848,19.2603,18.9134,SOL_COMPUTED,DOPPLER_VELOCITY,0.7224,-0.0783,-0.2456,0.3926,2.3020,2.2606,"",0.150,0.000,0.000,7,6,6,0,0,02,00,11*849aaf00
#BESTPOSA,USB1,0,50.0,FINESTEERING,1885,345131.500,00000000,b1f6,13386;SOL_COMPUTED,SINGLE,51.08067363314,-114.13087336329,1123.7242,-16.6000,WGS84,3.9354,9.6008,24.8795,"",0.000,0.000,7,6,6,0,00,02,00,11*da40f2c5
#BESTVELA,USB1,0,50.0,FINESTEERING,1885,345131.500,00000000,10a2,13386;SOL_COMPUTED,DOPPLER_VELOCITY,0.150,0.000,0.5792,81.747402,-0.7195,0*6617da68
#BESTXYZA,USB1,0,50.0,FINESTEERING,1885,345131.500,00000000,fac1,13386;SOL_COMPUTED,SINGLE,-1641726.9981,-3664827.4037,4940049.1508,3.2771,19.0822,18.7559,SOL_COMPUTED,DOPPLER_VELOCITY,0.7343,0.2372,-0.5075,0.3917,2.2808,2.2418,"",0.150,0.000,0.000,7,6,6,0,0,02,00,11*fb272e66
#BESTPOSA,USB1,0,50.0,FINESTEERING,1885,345131.750,00000000,b1f6,13386;SOL_COMPUTED,SINGLE,51.08064883047,-114.13068024691,1158.8167,-16.6000,WGS84,6.1602,25.1393,66.1087,"",0.000,0.000,6,5,5,0,00,02,00,11*aeed1eef
#BESTVELA,USB1,0,50.0,FINESTEERING,1885,345131.750,00000000,10a2,13386;SOL_COMPUTED,DOPPLER_VELOCITY,0.150,0.000,0.1500,298.039272,-2.0614,0*bd53c825
#BESTXYZA,USB1,0,50.0,FINESTEERING,1885,345131.750,00000000,fac1,13386;SOL_COMPUTED,SINGLE,-1641724.5364,-3664855.0162,4940074.7201,5.1439,51.6348,48.4529,SOL_COMPUTED,DOPPLER_VELOCITY,0.4310,1.2861,-1.5595,0.6148,6.1715,5.7912,"",0.150,0.000,0.000,6,5,5,0,0,02,00,11*5c1ffe16
#BESTPOSA,USB1,0,50.0,FINESTEERING,1885,345132.000,00000000,b1f6,13386;SOL_COMPUTED,SINGLE,51.08063147268,-114.13054044642,1184.1472,-16.6000,WGS84,3.6484,5.7825,15.8751,"",0.000,0.000,7,6,6,0,00,02,00,11*8b7f2df3
#BESTVELA,USB1,0,50.0,FINESTEERING,1885,345132.000,00000000,10a2,13386;SOL_COMPUTED,DOPPLER_VELOCITY,0.150,0.000,0.3134,69.558034,-0.9476,0*02f0b337
#BESTXYZA,USB1,0,50.0,FINESTEERING,1885,345132.000,00000000,fac1,13386;SOL_COMPUTED,SINGLE,-1641722.7142,-3664874.9161,4940093.2147,2.8726,11.5831,12.5038,SOL_COMPUTED,DOPPLER_VELOCITY,0.5462,0.5009,-0.6685,0.3433,1.3844,1.4945,"",0.150,0.000,0.000,7,6,6,0,0,02,00,11*29895871
#BESTPOSA,USB1,0,53.0,FINESTEERING,1885,345132.250,00000000,b1f6,13386;SOL_COMPUTED,SINGLE,51.08062812424,-114.13051136872,1188.9317,-16.6000,WGS84,3.6481,5.7821,15.8741,"",0.000,0.000,7,6,6,0,00,02,00,11*421f0bb1
#BESTVELA,USB1,0,53.0,FINESTEERING,1885,345132.250,00000000,10a2,13386;SOL_COMPUTED,DOPPLER_VELOCITY,0.150,0.000,0.6695,72.565099,-0.1050,0*3769ec12
#BESTXYZA,USB1,0,53.0,FINESTEERING,1885,345132.250,00000000,fac1,13386;SOL_COMPUTED,SINGLE,-1641722.2016,-3664878.7569,4940096.7031,2.8726,11.5826,12.5028,SOL_COMPUTED,DOPPLER_VELOCITY,0.6737,-0.0585,0.0444,0.3433,1.3844,1.4944,"",0.150,0.000,0.000,7,6,6,0,0,02,00,11*d83324a4
#BESTPOSA,USB1,0,53.0,FINESTEERING,1885,345132.500,00000000,b1f6,13386;SOL_COMPUTED,SINGLE,51.08064921221,-114.13067318730,1158.7039,-16.6000,WGS84,6.1465,25.0574,65.8973,"",0.000,0.000,6,5,5,0,00,02,00,11*0fdacd2f
#BESTVELA,USB1,0,53.0,FINESTEERING,1885,345132.500,00000000,10a2,13386;SOL_COMPUTED,DOPPLER_VELOCITY,0.150,0.000,0.8217,63.200628,0.2886,0*b3c4f6a2
